{
"type": "FeatureCollection",
"name": "modischools",
"crs": { "type": "name", "properties": { "name": "urn:ogc:def:crs:OGC:1.3:CRS84" } },
"features": [
{ "type": "Feature", "properties": { "name": "Jhilibaryang Basic School" }, "geometry": { "type": "Point", "coordinates": [ 83.732080495618447, 28.336825666871107 ] } },
{ "type": "Feature", "properties": { "name": "Gyanendra Basic School" }, "geometry": { "type": "Point", "coordinates": [ 83.759216639036708, 28.278412222346219 ] } },
{ "type": "Feature", "properties": { "name": "Siddha Primary School" }, "geometry": { "type": "Point", "coordinates": [ 83.763612699666396, 28.230217949598739 ] } },
{ "type": "Feature", "properties": { "name": "Jivan Jyoti Primary School" }, "geometry": { "type": "Point", "coordinates": [ 83.753187321437792, 28.242796101558895 ] } },
{ "type": "Feature", "properties": { "name": "Adarsha Primary School" }, "geometry": { "type": "Point", "coordinates": [ 83.743886540031838, 28.281625760820248 ] } },
{ "type": "Feature", "properties": { "name": "Nawajyoti School" }, "geometry": { "type": "Point", "coordinates": [ 83.764043912896341, 28.299958857115598 ] } },
{ "type": "Feature", "properties": { "name": "Shree Dimuwa Basic School" }, "geometry": { "type": "Point", "coordinates": [ 83.745379599888679, 28.270973749838731 ] } },
{ "type": "Feature", "properties": { "name": "Jana Netra Basic School" }, "geometry": { "type": "Point", "coordinates": [ 83.739801699688769, 28.294850534324723 ] } },
{ "type": "Feature", "properties": { "name": "Siddeshwor Basic School" }, "geometry": { "type": "Point", "coordinates": [ 83.738145175459522, 28.283936132646431 ] } },
{ "type": "Feature", "properties": { "name": "Jana Netra Higher Secondary School" }, "geometry": { "type": "Point", "coordinates": [ 83.736617354107636, 28.286263499860695 ] } },
{ "type": "Feature", "properties": { "name": "Himalaya Ma.vi" }, "geometry": { "type": "Point", "coordinates": [ 83.721900412873822, 28.30207655009275 ] } },
{ "type": "Feature", "properties": { "name": "Ghurunga Basic School" }, "geometry": { "type": "Point", "coordinates": [ 83.698518057662284, 28.310499061682378 ] } },
{ "type": "Feature", "properties": { "name": "Shree Salija Secondary School" }, "geometry": { "type": "Point", "coordinates": [ 83.673011403053863, 28.319232324112534 ] } },
{ "type": "Feature", "properties": { "name": "Jana Aadharsha Vidhyalaye" }, "geometry": { "type": "Point", "coordinates": [ 83.722073939760548, 28.267646314925571 ] } },
{ "type": "Feature", "properties": { "name": "Jana Priya Basic School" }, "geometry": { "type": "Point", "coordinates": [ 83.744906512425644, 28.315796828460918 ] } },
{ "type": "Feature", "properties": { "name": "Bhawani Basic School" }, "geometry": { "type": "Point", "coordinates": [ 83.764921609844464, 28.308495103266466 ] } },
{ "type": "Feature", "properties": { "name": "Sidda Basic School" }, "geometry": { "type": "Point", "coordinates": [ 83.750232420789644, 28.310145166766063 ] } },
{ "type": "Feature", "properties": { "name": "Janajyoti Primary School" }, "geometry": { "type": "Point", "coordinates": [ 83.735423735217239, 28.299109880916319 ] } },
{ "type": "Feature", "properties": { "name": "Mahendra Shikhari School(+2 Block)" }, "geometry": { "type": "Point", "coordinates": [ 83.715255754849238, 28.276463064119184 ] } },
{ "type": "Feature", "properties": { "name": "Bhuka Deurali Ma vi" }, "geometry": { "type": "Point", "coordinates": [ 83.731262501063611, 28.323454916311391 ] } },
{ "type": "Feature", "properties": { "name": "Dhulashree Primary School" }, "geometry": { "type": "Point", "coordinates": [ 83.767758336877819, 28.254946010749848 ] } },
{ "type": "Feature", "properties": { "name": "Saraswoti Basic School" }, "geometry": { "type": "Point", "coordinates": [ 83.748160649894146, 28.229430349431141 ] } },
{ "type": "Feature", "properties": { "name": "Shiva Basic School" }, "geometry": { "type": "Point", "coordinates": [ 83.751553245186187, 28.296773655379923 ] } },
{ "type": "Feature", "properties": { "name": "Prabhavkari Basic School" }, "geometry": { "type": "Point", "coordinates": [ 83.745794596543476, 28.293080632565193 ] } },
{ "type": "Feature", "properties": { "name": "River Side English Boarding School" }, "geometry": { "type": "Point", "coordinates": [ 83.71316582933963, 28.287922980161454 ] } },
{ "type": "Feature", "properties": { "name": "Krishna Basic School" }, "geometry": { "type": "Point", "coordinates": [ 83.705051844567038, 28.272423921926531 ] } },
{ "type": "Feature", "properties": { "name": "Shree Saraswati Madhyamic Bidhyalaye" }, "geometry": { "type": "Point", "coordinates": [ 83.732748098346121, 28.273723555597655 ] } },
{ "type": "Feature", "properties": { "name": "Manakaamana Prathaamik Bidhyalaye" }, "geometry": { "type": "Point", "coordinates": [ 83.726230500137547, 28.275227150112926 ] } },
{ "type": "Feature", "properties": { "name": "Bishwa Shanti School" }, "geometry": { "type": "Point", "coordinates": [ 83.706575659439181, 28.276116973519549 ] } },
{ "type": "Feature", "properties": { "name": "Shree Jana Prakash Basic School" }, "geometry": { "type": "Point", "coordinates": [ 83.737266429901865, 28.262150406815863 ] } },
{ "type": "Feature", "properties": { "name": "Navadurga Basic School" }, "geometry": { "type": "Point", "coordinates": [ 83.719420678021947, 28.240471847797608 ] } },
{ "type": "Feature", "properties": { "name": "Tulodaya Secondary School" }, "geometry": { "type": "Point", "coordinates": [ 83.722221323355427, 28.25063804680849 ] } },
{ "type": "Feature", "properties": { "name": "Shree Bidhyajyoti Primary School" }, "geometry": { "type": "Point", "coordinates": [ 83.726021503089953, 28.285324916112017 ] } },
{ "type": "Feature", "properties": { "name": "Shree Nava Jagrit Higher Secondary School" }, "geometry": { "type": "Point", "coordinates": [ 83.748740610990467, 28.268131691624319 ] } },
{ "type": "Feature", "properties": { "name": "Nava Jyoti Basic School" }, "geometry": { "type": "Point", "coordinates": [ 83.745063716617267, 28.265375371176503 ] } },
{ "type": "Feature", "properties": { "name": "Mahendra Basic School" }, "geometry": { "type": "Point", "coordinates": [ 83.754805014739702, 28.266377287881596 ] } },
{ "type": "Feature", "properties": { "name": "Hari Primary School" }, "geometry": { "type": "Point", "coordinates": [ 83.713903671817036, 28.231764521815307 ] } },
{ "type": "Feature", "properties": { "name": "Durga Vawani Basic School" }, "geometry": { "type": "Point", "coordinates": [ 83.765476879154733, 28.266381950866389 ] } },
{ "type": "Feature", "properties": { "name": "Laxmi Basic School" }, "geometry": { "type": "Point", "coordinates": [ 83.773535741781131, 28.258751876897634 ] } },
{ "type": "Feature", "properties": { "name": "Shree Janasiddha Basic School" }, "geometry": { "type": "Point", "coordinates": [ 83.772838751906932, 28.255638255800932 ] } },
{ "type": "Feature", "properties": { "name": "Panchakoshi Basic School" }, "geometry": { "type": "Point", "coordinates": [ 83.791600612578293, 28.25589160021724 ] } },
{ "type": "Feature", "properties": { "name": "Siddhabarahara Primary School" }, "geometry": { "type": "Point", "coordinates": [ 83.771361851967924, 28.248088153145829 ] } },
{ "type": "Feature", "properties": { "name": "Shree Bajung Lower Secondary School" }, "geometry": { "type": "Point", "coordinates": [ 83.682065477040169, 28.304251569454436 ] } },
{ "type": "Feature", "properties": { "name": "Panchase Siddhababa English Boarding School" }, "geometry": { "type": "Point", "coordinates": [ 83.744318579738717, 28.271301463691657 ] } },
{ "type": "Feature", "properties": { "name": "Shree Siddhartha Prathamik Bidhyalaye" }, "geometry": { "type": "Point", "coordinates": [ 83.704468420181513, 28.282589872724486 ] } },
{ "type": "Feature", "properties": { "name": "Shree Halhale Basic School" }, "geometry": { "type": "Point", "coordinates": [ 83.682694542918853, 28.263784391336628 ] } },
{ "type": "Feature", "properties": { "name": "Pashupati Basic School" }, "geometry": { "type": "Point", "coordinates": [ 83.740092245460801, 28.272981934168968 ] } },
{ "type": "Feature", "properties": { "name": "Shree Jana Aadarsha Boarding School" }, "geometry": { "type": "Point", "coordinates": [ 83.737614229213364, 28.273044672673564 ] } },
{ "type": "Feature", "properties": { "name": "Namuna English Boardig School" }, "geometry": { "type": "Point", "coordinates": [ 83.740140867307218, 28.272645535563072 ] } },
{ "type": "Feature", "properties": { "name": "Shree Netra Jyoti Primary School" }, "geometry": { "type": "Point", "coordinates": [ 83.756051717013179, 28.232671810955367 ] } },
{ "type": "Feature", "properties": { "name": "Mahendra Shikhari School" }, "geometry": { "type": "Point", "coordinates": [ 83.715298014891516, 28.278257977823444 ] } },
{ "type": "Feature", "properties": { "name": "Nava Jagrit Bhaumukhi Campus" }, "geometry": { "type": "Point", "coordinates": [ 83.744633684197254, 28.272215608363695 ] } },
{ "type": "Feature", "properties": { "name": "Bal Kalyan Primary School" }, "geometry": { "type": "Point", "coordinates": [ 83.737354953768147, 28.231638995343417 ] } },
{ "type": "Feature", "properties": { "name": "Bhume Primary School" }, "geometry": { "type": "Point", "coordinates": [ 83.750305230801814, 28.239546618981308 ] } },
{ "type": "Feature", "properties": { "name": "Bishwa Deep Boarding School" }, "geometry": { "type": "Point", "coordinates": [ 83.743328231912415, 28.239858014635729 ] } },
{ "type": "Feature", "properties": { "name": "Pashupati Secondary School" }, "geometry": { "type": "Point", "coordinates": [ 83.740331484910143, 28.240331051736689 ] } },
{ "type": "Feature", "properties": { "name": "Jana Kalyan Pravi" }, "geometry": { "type": "Point", "coordinates": [ 83.727476075560503, 28.290771086316624 ] } }
]
}
